{
    "phpxsan.com": {
        "external": false,
        "name": "PHP×San",
        "region": "San Diego",
        "description": "AKA SDPHP - A San Diego California-area PHP meetup for PHP and other devs to hang out.",
        "timezone": "America/Los_Angeles",
        "continent": "North America",
        "active": "true",
        "status": "active",
        "frequency": "monthly",
        "meetup_url": "https://www.meetup.com/sandiegophp/",
        "bsky_url": "https://bsky.app/profile/phparch.com",
        "latitude": 33.017301,
        "longitude": -117.099801
    },
    "phpxaz.com": {
        "external": false,
        "name": "PHP×Phoenix",
        "region": "Phoenix",
        "description": "AKA azPHP - A Phoenix-area PHP meetup for PHP and other devs to hang out.",
        "timezone": "America/Phoenix",
        "bsky_url": null,
        "active": "true",
        "status": "active",
        "frequency": "monthly",
        "meetup_url": "https://www.meetup.com/azPHPUG/",
        "latitude": 33.4484,
        "longitude": -112.0740
    },
    "phpxphilly.com": {
        "external": false,
        "name": "PHP×Philly",
        "region": null,
        "description": "A Philly-area PHP meetup for web artisans who want to learn and connect.",
        "timezone": "America/New_York",
        "bsky_url": "https://bsky.app/profile/phpxphilly.com",
        "latitude": 39.9527237,
        "longitude": -75.1635262
    },
    "phpxstl.com": {
        "external": false,
        "name": "PHP×STL",
        "region": "St. Louis",
        "description": "A St. Louis-area PHP meetup for web artisans who want to learn and connect.",
        "timezone": "America/Chicago",
        "bsky_url": "https://bsky.app/profile/phpxstl.com",
        "latitude": 38.6280278,
        "longitude": -90.1910154
    },
    "phpxchi.com": {
        "external": false,
        "name": "PHP×CHI",
        "region": "Chicago",
        "description": "A meetup in Chicago for PHP and Laravel devs. Coming soon.",
        "timezone": "America/Chicago",
        "bsky_url": "https://bsky.app/profile/phpxchi.com",
        "latitude": 41.8755616,
        "longitude": -87.6244212
    },
    "phpxatl.com": {
        "external": false,
        "name": "PHP×ATL",
        "region": "Atlanta",
        "description": "A local Atlanta Metro area PHP meetup for web artisans who want to learn and connect.",
        "timezone": "America/New_York",
        "bsky_url": "https://bsky.app/profile/phpxatl.com",
        "latitude": 33.7489924,
        "longitude": -84.3902644
    },
    "phpxmsp.com": {
        "external": false,
        "name": "PHP×MSP",
        "region": "Minneapolis",
        "description": "A local Minneapolis / St. Paul PHP meetup for web artisans who want to learn and connect.",
        "timezone": "America/Chicago",
        "status": "active",
        "bsky_url": "https://bsky.app/profile/phpxmsp.com",
        "latitude": 44.9772995,
        "longitude": -93.2654692
    },
    "phpxhou.com": {
        "external": false,
        "name": "PHP×HOU",
        "region": "Houston",
        "description": "A local Houston PHP meetup for web artisans who want to learn and connect.",
        "timezone": "America/Chicago",
        "bsky_url": "https://bsky.app/profile/phpxhou.com",
        "latitude": 29.7589382,
        "longitude": -95.3676974
    },
    "phpxcmh.com": {
        "external": false,
        "name": "PHP×CMH",
        "region": "Columbus",
        "description": "A local Columbus PHP meetup for web artisans who want to learn and connect.",
        "timezone": "America/New_York",
        "bsky_url": "https://bsky.app/profile/phpxcmh.com",
        "latitude": 39.9622601,
        "longitude": -83.0007065
    },
    "phpxmel.com": {
        "external": false,
        "name": "PHP×MEL",
        "region": "Melbourne",
        "continent": "Australia",
        "description": "A Melbourne, Australia PHP meetup for web artisans who love to learn, build, and connect.",
        "timezone": "Australia/Melbourne",
        "status": "active",
        "frequency": "quarterly",
        "bsky_url": "https://bsky.app/profile/phpxmel.com",
        "latitude": -37.8045995,
        "longitude": 144.9469932
    },
    "phpxadl.com": {
        "external": false,
        "name": "PHP×ADL",
        "region": "Adelaide",
        "continent": "Australia",
        "description": "An Adelaide, Australia PHP meetup for web artisans who want to learn and connect.",
        "timezone": "Australia/Adelaide",
        "status": "active",
        "frequency": "monthly",
        "bsky_url": "https://bsky.app/profile/phpxadl.bsky.social",
        "latitude": -34.9281805,
        "longitude": 138.5999312
    },
    "phpxsyd.com": {
        "external": false,
        "name": "PHP×SYD",
        "region": "Sydney",
        "timezone": "Australia/Sydney",
        "description": "A Sydney, Australia PHP/Laravel meetup for artisans who want to learn and connect.",
        "continent": "Australia",
        "status": "active",
        "meetup_url": "https://www.meetup.com/sydphp/",
        "frequency": "bi-monthly(ish)",
        "latitude": -33.8688,
        "longitude": 151.2093
    },
    "phpxcebu.com": {
        "external": false,
        "name": "PHP×CEBU",
        "region": "Cebu",
        "description": "A Cebu-Philippines PHP meetup for web artisans who want to learn and connect.",
        "timezone": "Asia/Manila",
        "bsky_url": "https://bsky.app/profile/phpxcebu.com",
        "status": "planned",
        "frequency": "bi-monthly",
        "latitude": 10.2935639,
        "longitude": 123.9019209
    },
     "phpxmanila.com": {
        "external": true,
        "name": "PHP×Manila",
        "timezone": "Asia/Manila",
        "continent": "Asia",
        "region": "Manila",
        "description": "A Manila-based PHP & Laravel meetup for web artisans who want to learn and connect.",
        "bsky_url": "https://bsky.app/profile/phpxmanila.com",
        "frequency": "quarterly",
        "status": "planned",
        "latitude": 14.617290,
        "longitude": 121.059311
    },
    "amsterdamphp.nl": {
        "external": true,
        "name": "PHP×Amsterdam",
        "region": "Amsterdam",
        "continent": "Europe",
        "description": "An English-speaking group for PHP Developers in and around Amsterdam.",
        "timezone": "Europe/Amsterdam",
        "bsky_url": "https://bsky.app/profile/amsterdamphp.bsky.social",
        "meetup_url": "https://www.meetup.com/amsterdamphp",
        "status": "active",
        "frequency": "monthly",
        "latitude": 52.2229,
        "longitude": 4.53429
    },
    "phpxbru.com": {
        "external": false,
        "name": "PHP×BRU",
        "region": "Brussels",
        "continent": "Europe",
        "description": "PHP & Laravel meetups for belgian developers",
        "timezone": "Europe/Brussels",
        "bsky_url": "https://bsky.app/profile/phpxbru.com",
        "status": "planned",
        "frequency": "monthly",
        "latitude": 50.8465573,
        "longitude": 4.351697
    },
    "phpxchd.com": {
        "external": false,
        "name": "PHP×CHD",
        "continent": "Asia",
        "region": "Chandigarh",
        "description": "A meetup for web-devs around Chandigarh tri-city area who want to learn, teach and have some fun doing that",
        "timezone": "Asia/Kolkata",
        "status": "planned",
        "frequency": "bi-monthly",
        "bsky_url": "https://bsky.app/profile/phpxchd.com",
        "latitude": 30.6976952,
        "longitude": 76.6910445
    },
    "phpxvie.com": {
        "external": false,
        "name": "PHP×VIE",
        "region": "Vienna",
        "description": "A Vienna PHP meetup for web artisans who want to learn and connect.",
        "timezone": "Europe/Vienna",
        "bsky_url": "https://bsky.app/profile/phpxvie.bsky.social",
        "meetup_url": "https://www.meetup.com/viennaphp/,https://www.meetup.com/Laravel-Frameworkers-Vienna/",
        "status": "active",
        "frequency": "bi-monthly",
        "latitude": 48.18835594056084,
        "longitude": 16.374042777964085
    },
    "phpxfra.com": {
        "external": false,
        "name": "PHP×FRA",
        "region": "Frankfurt",
        "continent": "Europe",
        "description": "A Frankfurt PHP/Laravel meetup for web artisans who want to learn and connect.",
        "timezone": "Europe/Berlin",
        "bsky_url": "https://bsky.app/profile/byte5.bsky.social",
        "meetup_url": "https://www.meetup.com/de-DE/laravel-meetup-germany/",
        "status": "active",
        "frequency": "quarterly",
        "latitude": 50.10133008361063,
        "longitude": 8.663325905799867
    },
    "upstatephp.com": {
        "external": true,
        "name": "PHP×GVL",
        "region": "Greenville",
        "latitude": 34.851354,
        "longitude": -82.3984882
    },
    "phpxnyc.com": {
        "external": true,
        "name": "PHP×NYC",
        "region": "NYC",
        "latitude": 40.7127281,
        "longitude": -74.0060152
    },
    "kyphpug.org": {
        "external": true,
        "name": "PHP×LEX",
        "region": "Kentucky",
        "latitude": 38.0464066,
        "longitude": -84.4970393
    },
    "mkepug.org": {
        "external": true,
        "name": "PHP×MKE",
        "region": "Milwaukee",
        "latitude": 43.0386475,
        "longitude": -87.9090751
    },
    "phpstoke.co.uk": {
        "external": true,
        "name": "PHP×Stoke",
        "region": "Stoke-on-Trent",
        "latitude": 53.0162014,
        "longitude": -2.1812607
    },
    "chattanoogaphp.org": {
        "external": true,
        "name": "PHP×Chattanooga",
        "region": "Chattanooga",
        "description": "A Chattanooga Tennessee PHP meetup for web artisans who want to learn and connect, held over zoom - over lunch, doing PHP/Laravel/Drupal/Anything PHP",
        "timezone": "America/New York",
        "bsky_url": "https://bsky.app/profile/phpxchattanooga.bsky.social",
        "latitude": 35.0457219,
        "longitude": -85.3094883
    },
    "laravel.swiss": {
        "external": true,
        "name": "PHP×Switzerland",
        "region": "Switzerland",
        "description": "Bringing the Swiss Laravel community together on a regular base by organizing a monthly Meetup covering all topics around the Laravel and PHP ecosystem.",
        "frequency": "monthly",
        "timezone": "Europe/Zurich",
        "bsky_url": null,
        "latitude": 46.94809,
        "longitude": 7.44744,
        "status": "active"
    },
    "phpxmtl.ca": {
        "external": true,
        "name": "PHP×Montreal",
        "region": "Montreal",
        "description": "Your friendly Montreal Laravel User Group, organizing monthly Meetups about the Laravel ecosystem.",
        "frequency": "monthly",
        "timezone": "America/Toronto",
        "bsky_url": null,
        "latitude": 45.494642,
        "longitude": -73.55776,
        "status": "active"
    },
    "phpxden.com": {
        "external": false,
        "name": "PHP×DEN",
        "region": "Denver",
        "continent": "North America",
        "description": "A Denver-area PHP meetup for web artisans who want to learn and connect.",
        "timezone": "America/Denver",
        "status": "prospective",
        "latitude": 39.7392,
        "longitude": -104.9903
    },
    "phpxsea.com": {
        "external": false,
        "name": "PHP×SEA",
        "region": "Seattle",
        "continent": "North America",
        "description": "A Seattle-area PHP meetup for web artisans who want to learn and connect.",
        "timezone": "America/Los_Angeles",
        "status": "prospective",
        "bsky_url": "https://bsky.app/profile/phpxsea.com",
        "latitude": 47.60899936190318,
        "longitude": -122.34052530121367
    },
    "nashvillephp.org": {
        "external": true,
        "name": "Nashville PHP",
        "region": "Nashville",
        "continent": "North America",
        "description": "We are a community of PHP and Web developers serving the metro Nashville and Middle Tennessee areas. Everyone is welcome, no matter your skill level. Come learn with us!",
        "timezone": "America/Chicago",
        "status": "active",
        "frequency": "monthly",
        "meetup_url": "https://www.meetup.com/nashvillephp/",
        "bsky_url": null,
        "latitude": 36.16048,
        "longitude": -86.77842
    },
    "phpxmbs.com": {
        "external": false,
        "name": "PHP×MBS",
        "region": "Saginaw",
        "continent": "North America",
        "description": "A PHP meetup in the Great Lakes Bay Region ",
        "timezone": "America/Detroit",
        "status": "prospective",
        "frequency": "monthly",
        "latitude": 43.4382,
        "longitude": -83.9377
    },
    "phpxlagos.com": {
        "external": false,
        "name": "PHP×Lagos",
        "region": "Lagos",
        "continent": "Africa",
        "description": "A PHP meetup in Lagos for web artisans who want to connect",
        "timezone": "Africa/Lagos",
        "status": "planned",
        "latitude": 6.5244,
        "longitude": 3.3792
    },
    "laravel-moris.africa": {
        "external": true,
        "name": "Laravel Moris",
        "region": "Mauritius",
        "continent": "Africa",
        "description": "We are a group of passionate Laravel developers dedicated to promoting its adoption across Mauritius and Africa",
        "timezone": "Indian/Mauritius",
        "status": "active",
        "frequency": "monthly",
        "meetup_url": "https://www.meetup.com/laravel-moris/",
        "bsky_url": "https://bsky.app/profile/laravelmoris.bsky.social",
        "latitude": -20.162480,
        "longitude": 57.502617
    },
    "phpxtky.com": {
        "external": false,
        "name": "PHP×TKY",
        "region": "Tokyo",
        "continent": "Asia",
        "description": "A Tokyo PHP/Laravel meetup for web artisans who want to learn and connect.",
        "timezone": "Asia/Tokyo",
        "bsky_url": "https://bsky.app/profile/phpxtky.bsky.social",
        "meetup_url": "https://www.meetup.com/phpxtky/",
        "status": "planned",
        "frequency": "monthly",
        "latitude": 35.652832,
        "longitude": 139.839478
    },
    "brumphp.co.uk": {
        "external": true,
        "name": "BrumPHP",
        "region": "Birmingham",
        "continent": "Europe",
        "description": "BrumPHP meetups are designed to bring the community together, to discuss and learn developer life and share thoughts and ideas about Symfony, Laravel, developer culture, and of course, Birmingham",
        "timezone": "Europe/London",
        "status": "active",
        "frequency": "quarterly",
        "latitude": 52.4823,
        "longitude": 1.8900
    },
    "phpsw.uk": {
        "external": true,
        "name": "PHP SW",
        "meetup_url": "https://www.meetup.com/php-sw/",
        "region": "Bristol",
        "continent": "Europe",
        "description": "PHP-SW is based in Bristol, UK. We meet on the 2nd Wednesday of every month",
        "timezone": "Europe/London",
        "status": "active",
        "frequency": "monthly",
        "latitude": 51.4533,
        "longitude": -2.5910
    },
    "gtaphp.org": {
        "external": true,
        "name": "Greater Toronto Area PHP",
        "region": "Greater Toronto",
        "continent": "North America",
        "description": "We are a dedicated group of PHP developers who meet with some regularity. Our meet-ups are in the downtown area, but devs come from all around.",
        "timezone": "America/Toronto",
        "meetup_url": "https://www.meetup.com/gta-php-user-group-toronto/",
        "status": "active",
        "frequency": "bi-monthly",
        "latitude": 43.642567,
        "longitude": -79.387054
    },
    "phpxdc.com": {
        "external": false,
        "name": "PHP×DC",
        "region": "Washington D.C.",
        "continent": "North America",
        "description": "A DMV-area PHP meetup for web artisans who want to learn and connect.",
        "timezone": "America/New_York",
        "status": "prospective",
        "frequency": "monthly",
        "latitude": 38.889805,
        "longitude": -77.009056
    },
    "phpxbean.com": {
        "external": false,
        "name": "PHP×Bean",
        "region": "Eau Claire",
        "description": "A Bean Island meetup for web artisans who want to paddle and care for our island.",
        "timezone": "America/Chicago",
        "status": "active",
        "bsky_url": "https://bsky.app/profile/phpxbean.com",
        "latitude": 44.7961667,
        "longitude": -91.5335471
    },
    "phpxral.com": {
        "external": false,
        "name": "PHP×RAL",
        "region": "Raleigh",
        "description": "A Raleigh-area PHP meetup for web artisans who want to learn and connect.",
        "timezone": "America/New_York",
        "continent": "North America",
        "active": "true",
        "status": "planned",
        "frequency": "quarterly",
        "bsky_url": "https://bsky.app/profile/phpxral.bsky.social",
        "latitude": 35.773731,
        "longitude": -78.642831
    },
    "phpxibadan.com": {
        "external": false,
        "name": "PHP×Ibadan",
        "region": "Ibadan",
        "continent": "Africa",
        "active": "true",
        "description": "PHPxIbadan meetups are designed to bring the community together — to share experiences, learn about developer life, and exchange ideas around PHP, developer culture, and of course, Ibadan.",
        "timezone": "Africa/Lagos",
        "status": "active",
        "latitude": 7.376736,
        "longitude": 3.939786
    }
}
